[
    {
        "name": "St. Lawrence Market",
        "city": "toronto",
        "category": "food",
        "address": "93 Front St E, Toronto, ON M5E 1C3",
        "phone": "+1 416-392-7219",
        "rating": 4.8,
        "price": "5-30$",
        "budgetLevel": "Easy",
        "hours": "Tue–Thu 9am–7pm, Fri 9am–8pm, Sat 5am–5pm",
        "tags": ["Food", "Shopping"],
        "coordinates": { "lat": 43.6487, "lng": -79.3716 }
    },
    {
        "name": "Pai Northern Thai Kitchen",
        "city": "toronto",
        "category": "food",
        "address": "18 Duncan St, Toronto, ON M5H 3G8",
        "phone": "+1 416-901-4724",
        "rating": 4.7,
        "price": "25-45$",
        "budgetLevel": "Comfy",
        "hours": "Mon–Fri 11:30am–10pm, Sat–Sun 11am–10pm",
        "tags": ["Food"],
        "coordinates": { "lat": 43.6487, "lng": -79.3918 }
    },
    {
        "name": "Canoe Restaurant",
        "city": "toronto",
        "category": "food",
        "address": "66 Wellington St W 54th Floor, Toronto, ON M5K 1H6",
        "phone": "+1 416-364-0054",
        "rating": 4.6,
        "price": "80-120$",
        "budgetLevel": "Lavish",
        "hours": "Mon–Fri 11:45am–10:30pm",
        "tags": ["Food"],
        "coordinates": { "lat": 43.6479, "lng": -79.3809 }
    },
    {
        "name": "Richmond Station",
        "city": "toronto",
        "category": "food",
        "address": "1 Richmond St W, Toronto, ON M5H 3W4",
        "phone": "+1 416-364-7776",
        "rating": 4.7,
        "price": "40-70$",
        "budgetLevel": "Comfy",
        "hours": "Mon–Fri 11:30am–11pm, Sat 5pm–11pm",
        "tags": ["Food"],
        "coordinates": { "lat": 43.6519, "lng": -79.38 }
    },
    {
        "name": "Carousel Bakery",
        "city": "toronto",
        "category": "food",
        "address": "93 Front St E, Toronto, ON M5E 1C3",
        "phone": "+1 416-363-4247",
        "rating": 4.7,
        "price": "5-15$",
        "budgetLevel": "Easy",
        "hours": "Tue–Thu 7am–6pm, Fri 7am–7pm, Sat 5am–4pm",
        "tags": ["Food"],
        "coordinates": { "lat": 43.6487, "lng": -79.3718 }
    },
    {
        "name": "Terroni Adelaide",
        "city": "toronto",
        "category": "food",
        "address": "57 Adelaide St E, Toronto, ON M5C 1K6",
        "phone": "+1 416-203-3093",
        "rating": 4.5,
        "price": "25-50$",
        "budgetLevel": "Comfy",
        "hours": "Daily 11am–11pm",
        "tags": ["Food"],
        "coordinates": { "lat": 43.6499, "lng": -79.3748 }
    },
    {
        "name": "Bar Raval",
        "city": "toronto",
        "category": "nightlife",
        "address": "505 College St, Toronto, ON M6G 1A5",
        "phone": "+1 647-344-8001",
        "rating": 4.6,
        "price": "20-40$",
        "budgetLevel": "Comfy",
        "hours": "Daily 11am–2am",
        "tags": ["Nightlife", "Food"],
        "coordinates": { "lat": 43.6549, "lng": -79.4011 }
    },
    {
        "name": "Baro",
        "city": "toronto",
        "category": "nightlife",
        "address": "485 King St W, Toronto, ON M5V 1K4",
        "phone": "+1 647-352-2276",
        "rating": 4.5,
        "price": "30-60$",
        "budgetLevel": "Comfy",
        "hours": "Tue–Sat 5pm–2am",
        "tags": ["Nightlife"],
        "coordinates": { "lat": 43.6456, "lng": -79.3981 }
    },
    {
        "name": "The Rex Hotel Jazz Bar",
        "city": "toronto",
        "category": "nightlife",
        "address": "194 Queen St W, Toronto, ON M5V 1Z1",
        "phone": "+1 416-598-2475",
        "rating": 4.5,
        "price": "10-25$",
        "budgetLevel": "Easy",
        "hours": "Daily 11am–2am",
        "tags": ["Nightlife"],
        "coordinates": { "lat": 43.6503, "lng": -79.3916 }
    },
    {
        "name": "Drake Hotel",
        "city": "toronto",
        "category": "nightlife",
        "address": "1150 Queen St W, Toronto, ON M6J 1J3",
        "phone": "+1 416-531-5042",
        "rating": 4.4,
        "price": "20-50$",
        "budgetLevel": "Comfy",
        "hours": "Daily 11am–2am",
        "tags": ["Nightlife"],
        "coordinates": { "lat": 43.6442, "lng": -79.4224 }
    },
    {
        "name": "Royal Ontario Museum",
        "city": "toronto",
        "category": "culture",
        "address": "100 Queens Park, Toronto, ON M5S 2C6",
        "phone": "+1 416-586-8000",
        "rating": 4.6,
        "price": "20-23$",
        "budgetLevel": "Easy",
        "hours": "Daily 10am–5:30pm",
        "tags": ["Art & Museums"],
        "coordinates": { "lat": 43.6677, "lng": -79.3948 }
    },
    {
        "name": "Art Gallery of Ontario",
        "city": "toronto",
        "category": "culture",
        "address": "317 Dundas St W, Toronto, ON M5T 1G4",
        "phone": "+1 416-979-6648",
        "rating": 4.7,
        "price": "25-28$",
        "budgetLevel": "Easy",
        "hours": "Tue–Sun 10am–5pm",
        "tags": ["Art & Museums"],
        "coordinates": { "lat": 43.6536, "lng": -79.3925 }
    },
    {
        "name": "Distillery District",
        "city": "toronto",
        "category": "culture",
        "address": "55 Mill St, Toronto, ON M5A 3C4",
        "phone": "+1 416-364-1177",
        "rating": 4.7,
        "price": "0$",
        "budgetLevel": "Easy",
        "hours": "Daily 10am–9pm",
        "tags": ["Art & Museums", "Shopping"],
        "coordinates": { "lat": 43.6503, "lng": -79.3597 }
    },
    {
        "name": "CN Tower",
        "city": "toronto",
        "category": "culture",
        "address": "290 Bremner Blvd, Toronto, ON M5V 3L9",
        "phone": "+1 416-868-6937",
        "rating": 4.5,
        "price": "35-55$",
        "budgetLevel": "Comfy",
        "hours": "Daily 9am–10:30pm",
        "tags": ["Art & Museums"],
        "coordinates": { "lat": 43.6426, "lng": -79.3871 }
    },
    {
        "name": "Hockey Hall of Fame",
        "city": "toronto",
        "category": "culture",
        "address": "30 Yonge St, Toronto, ON M5E 1X8",
        "phone": "+1 416-360-7765",
        "rating": 4.5,
        "price": "20-25$",
        "budgetLevel": "Easy",
        "hours": "Mon–Sat 10am–5pm, Sun 10am–6pm",
        "tags": ["Art & Museums"],
        "coordinates": { "lat": 43.6474, "lng": -79.3776 }
    },
    {
        "name": "Casa Loma",
        "city": "toronto",
        "category": "culture",
        "address": "1 Austin Terrace, Toronto, ON M5R 1X8",
        "phone": "+1 416-923-1171",
        "rating": 4.5,
        "price": "30-35$",
        "budgetLevel": "Easy",
        "hours": "Daily 9:30am–5pm",
        "tags": ["Art & Museums"],
        "coordinates": { "lat": 43.678, "lng": -79.4094 }
    },
    {
        "name": "High Park",
        "city": "toronto",
        "category": "nature",
        "address": "1873 Bloor St W, Toronto, ON M6R 2Z3",
        "phone": "+1 416-392-1111",
        "rating": 4.8,
        "price": "0$",
        "budgetLevel": "Easy",
        "hours": "Always open",
        "tags": ["Nature"],
        "coordinates": { "lat": 43.6469, "lng": -79.4634 }
    },
    {
        "name": "Toronto Islands",
        "city": "toronto",
        "category": "nature",
        "address": "Toronto Islands, Toronto, ON M5J 2H1",
        "phone": "+1 416-392-8188",
        "rating": 4.7,
        "price": "10-20$",
        "budgetLevel": "Easy",
        "hours": "Daily 6:30am–11:30pm (ferry)",
        "tags": ["Nature"],
        "coordinates": { "lat": 43.6205, "lng": -79.3876 }
    },
    {
        "name": "Scarborough Bluffs",
        "city": "toronto",
        "category": "nature",
        "address": "Scarborough Bluffs Park, Toronto, ON M1M 2E5",
        "phone": "+1 416-392-1111",
        "rating": 4.7,
        "price": "0$",
        "budgetLevel": "Easy",
        "hours": "Always open",
        "tags": ["Nature"],
        "coordinates": { "lat": 43.7048, "lng": -79.2339 }
    },
    {
        "name": "Evergreen Brick Works",
        "city": "toronto",
        "category": "nature",
        "address": "550 Bayview Ave, Toronto, ON M4W 3X8",
        "phone": "+1 416-596-7670",
        "rating": 4.5,
        "price": "0$",
        "budgetLevel": "Easy",
        "hours": "Mon–Fri 9am–5pm, Sat–Sun 8am–5pm",
        "tags": ["Nature", "Shopping"],
        "coordinates": { "lat": 43.6823, "lng": -79.3641 }
    },
    {
        "name": "Rouge National Urban Park",
        "city": "toronto",
        "category": "nature",
        "address": "Rouge National Urban Park, Toronto, ON M1X 1B1",
        "phone": "+1 888-773-8888",
        "rating": 4.6,
        "price": "0$",
        "budgetLevel": "Easy",
        "hours": "Always open",
        "tags": ["Nature"],
        "coordinates": { "lat": 43.8062, "lng": -79.1627 }
    },
    {
        "name": "Kensington Market",
        "city": "toronto",
        "category": "shopping",
        "address": "Kensington Ave, Toronto, ON M5T 2K2",
        "phone": "+1 416-392-1111",
        "rating": 4.7,
        "price": "5-50$",
        "budgetLevel": "Easy",
        "hours": "Daily 10am–7pm",
        "tags": ["Shopping", "Food"],
        "coordinates": { "lat": 43.6547, "lng": -79.4005 }
    },
    {
        "name": "Queen Street West",
        "city": "toronto",
        "category": "shopping",
        "address": "Queen St W, Toronto, ON M6J 1E6",
        "phone": "+1 416-392-1111",
        "rating": 4.6,
        "price": "20-100$",
        "budgetLevel": "Comfy",
        "hours": "Daily 10am–9pm",
        "tags": ["Shopping"],
        "coordinates": { "lat": 43.6472, "lng": -79.4009 }
    },
    {
        "name": "Yorkville",
        "city": "toronto",
        "category": "shopping",
        "address": "Yorkville Ave, Toronto, ON M5R 1C1",
        "phone": "+1 416-928-3553",
        "rating": 4.5,
        "price": "100-500$",
        "budgetLevel": "Lavish",
        "hours": "Mon–Sat 10am–7pm, Sun 11am–6pm",
        "tags": ["Shopping"],
        "coordinates": { "lat": 43.6709, "lng": -79.3942 }
    },
    {
        "name": "CF Toronto Eaton Centre",
        "city": "toronto",
        "category": "shopping",
        "address": "220 Yonge St, Toronto, ON M5B 2H1",
        "phone": "+1 416-598-8700",
        "rating": 4.5,
        "price": "30-200$",
        "budgetLevel": "Comfy",
        "hours": "Mon–Fri 10am–9pm, Sat 9:30am–9pm, Sun 11am–7pm",
        "tags": ["Shopping"],
        "coordinates": { "lat": 43.6544, "lng": -79.3807 }
    },
    {
        "name": "Leslieville",
        "city": "toronto",
        "category": "shopping",
        "address": "Queen St E, Toronto, ON M4M 1J3",
        "phone": "+1 416-392-1111",
        "rating": 4.5,
        "price": "10-60$",
        "budgetLevel": "Easy",
        "hours": "Daily 10am–8pm",
        "tags": ["Shopping", "Food"],
        "coordinates": { "lat": 43.6613, "lng": -79.3304 }
    }
]
